[
    {
        "city": "AMAZONAS",
        "lat": -5.222247,
        "lng": -78.140259
    },
    {
        "city": "ANCASH",
        "lat": -9.538458,
        "lng": -77.531891
    },
    {
        "city": "APURIMAC",
        "lat": -14.028140,
        "lng": -72.975380
    },
    {
        "city": "AREQUIPA",
        "lat": -16.342461,
        "lng": -71.569104
    },
    {
        "city": "AYACUCHO",
        "lat": -13.160010,
        "lng": -74.223892
    },
    {
        "city": "CAJAMARCA",
        "lat": -7.157220,
        "lng": -78.518059
    },
    {
        "city": "CALLAO",
        "lat": -12.047490,
        "lng": -77.114720
    },
    {
        "city": "CUSCO",
        "lat": -13.531950,
        "lng": -71.967461
    },
    {
        "city": "HUANCAVELICA",
        "lat": -12.787490,
        "lng": -74.973040
    },
    {
        "city": "HUANUCO",
        "lat": -9.926930,
        "lng": -76.242220
    },
    {
        "city": "ICA",
        "lat": -14.070000,
        "lng": -75.725281
    },
    {
        "city": "JUNIN",
        "lat": -11.164950,
        "lng": -75.995540
    },
    {
        "city": "LA LIBERTAD",
        "lat": -8.1116778,
        "lng": -79.0287742
    },
    {
        "city": "LAMBAYEQUE",
        "lat": -6.701670,
        "lng": -79.906670
    },
    {
        "city": "LIMA",
        "lat": -12.046373,
        "lng": -77.042755
    },
    {
        "city": "LORETO",
        "lat": -3.757375,
        "lng": -73.247910
    },
    {
        "city": "MADRE DE DIOS",
        "lat": -12.616110,
        "lng": -70.390022
    },
    {
        "city": "MOQUEGUA",
        "lat": -17.194429,
        "lng": -70.934441
    },
    {
        "city": "PASCO",
        "lat": -10.292050,
        "lng": -75.431137
    },
    {
        "city": "PIURA",
        "lat": -5.195270,
        "lng": -80.626938
    },
    {
        "city": "PUNO",
        "lat": -15.839150,
        "lng": -70.029167
    },
    {
        "city": "SAN MARTIN",
        "lat": -6.631870,
        "lng": -76.316528
    },
    {
        "city": "TUMBES",
        "lat": -3.568340,
        "lng": -80.453621
    },
    {
        "city": "TACNA",
        "lat": -18.013611,
        "lng": -70.252769
    },
    {
        "city": "UCAYALI",
        "lat": -9.474799,
        "lng": -73.407211
    }
]